completion_year	title	road_class_or_number	status	realization_from	realization_to	lat	lon	cost_ex_vat	total_cost	source_dataset	source_url
2024	Bojanov most ev.č. 337-028 Mostní provizorium	Silnice III. třídy	Dokončeno	07/2024	08/2024	49.8504	15.731163	3 178 556 Kč	4 416 511	apdos-pardubice	https://apdos.roadmedia.cz/json/data-pardubice.json
2025	D35 Opatovice - Časy, II/298 Sezemice - Choteč, oprava návozových tras	II/298	Dokončeno	14. 4. 2025	7. 5. 2025	50.076263	15.864464	3 839 596 Kč		apdos-pardubice	https://apdos.roadmedia.cz/json/data-pardubice.json
2024	D35 Opatovice - Časy, III/03324 křiž. II/333 - Pohřebačka, oprava návozových tras	Silnice III. třídy	Dokončeno	21. 10. 2024	19. 11. 2024	50.165096	15.770951	7 218 902 Kč		apdos-pardubice	https://apdos.roadmedia.cz/json/data-pardubice.json
2025	D35 Opatovice - Časy, III/29810 Sezemice - Dříteč - Bukovina n. L., oprava návozových tras, II. etapa	Silnice III. třídy	Dokončeno	9. 6. 2025	07/2025	50.096645	15.822081	4 287 058 Kč		apdos-pardubice	https://apdos.roadmedia.cz/json/data-pardubice.json
2024	D35 Opatovice - Časy, III/29815 Dražkov - Bohumileč, oprava návozových tras	Silnice III. třídy	Dokončeno	29. 7. 2024	25. 8. 2024	50.09389	15.850267	6 751 810 Kč		apdos-pardubice	https://apdos.roadmedia.cz/json/data-pardubice.json
2025	D35 Opatovice - Časy, III/29817 křiž. II/298 - Choteč, oprava návozových tras	Silnice III. třídy	Dokončeno	7. 5. 2025	25. 5. 2025	50.08139	15.875021	4 925 661 Kč		apdos-pardubice	https://apdos.roadmedia.cz/json/data-pardubice.json
2024	D35 Opatovice - Časy, III/29819 Dolní Ředice - Chvojenec, oprava návozových tras	Silnice III. třídy	Dokončeno	8. 7. 2024	15. 9. 2024	50.090305	15.91198	17 997 394 Kč		apdos-pardubice	https://apdos.roadmedia.cz/json/data-pardubice.json
2025	D35 Opatovice - Časy, III/29820 Bohumileč - Újezd u Sezemic - Borek, oprava návozových tras	Silnice III. třídy	Dokončeno	15. 9. 2025	11/2025	50.115818	15.857237	9 691 297 Kč		apdos-pardubice	https://apdos.roadmedia.cz/json/data-pardubice.json
2024	D35 Opatovice - Časy, III/29821 Rokytno - Chvojenec, oprava návozových tras	Silnice III. třídy	Dokončeno	12. 8. 2024	22. 9. 2024	50.11025	15.907474	6 988 590 Kč		apdos-pardubice	https://apdos.roadmedia.cz/json/data-pardubice.json
2024	D35 Opatovice - Časy, III/3053 Chvojenec - Vysoké Chvojno, oprava návozových tras	Silnice III. třídy	Dokončeno	5. 8. 2024	18. 8. 2024	50.109547	15.962937	4 308 987 Kč		apdos-pardubice	https://apdos.roadmedia.cz/json/data-pardubice.json
2024	D35 Opatovice - Časy, III/32253 Dašice - Dolní Ředice, oprava návozových tras	Silnice III. třídy	Dokončeno	06/2024	07/2024	50.045906	15.90774	10 901 102 Kč		apdos-pardubice	https://apdos.roadmedia.cz/json/data-pardubice.json
2025	D35 Opatovice - Časy, III/32259 Platěnice - železniční přejezd, oprava návozových tras	Silnice III. třídy	Dokončeno	4. 8. 2025	18. 8. 2025	50.00978	15.959226	2 261 162 Kč		apdos-pardubice	https://apdos.roadmedia.cz/json/data-pardubice.json
2025	D35 Opatovice - Časy, III/32271 křiž. III/32273 - Městec, oprava návozových tras	Silnice III. třídy	Dokončeno	22. 9. 2025	12. 10. 2025	49.97835	16.00938	1 988 888 Kč		apdos-pardubice	https://apdos.roadmedia.cz/json/data-pardubice.json
2025	D35 Opatovice - Časy, III/32274 Městec - Turov, oprava návozových tras	Silnice III. třídy	Dokončeno	22. 9. 2025	10/2025	49.98069	16.000952	3 783 375 Kč		apdos-pardubice	https://apdos.roadmedia.cz/json/data-pardubice.json
2025	D35 Opatovice - Časy, III/3237 Křičeň - Dolany - Podůlšany, oprava návozových tras	Silnice III. třídy	Dokončeno	7. 6. 2025	10/2025	50.114437	15.677061	24 360 000 Kč		apdos-pardubice	https://apdos.roadmedia.cz/json/data-pardubice.json
2024	D35 Opatovice - Časy, III/3239 Doubravice - Hrádek - Dolany, oprava návozových tras	Silnice III. třídy	Dokončeno	14. 6. 2024	2024	50.080894	15.72692	10 550 437 Kč		apdos-pardubice	https://apdos.roadmedia.cz/json/data-pardubice.json
2025	D35 Opatovice - Časy, III/III/29810 Sezemice - Dříteč - Bukovina n. L., oprava návozových tras, I. etapa	Silnice III. třídy	Dokončeno	8. 7. 2025	09/2025	50.07346	15.847718	17 342 103 Kč		apdos-pardubice	https://apdos.roadmedia.cz/json/data-pardubice.json
2025	D35 Opatovice nad Labem - Časy III/32269 Horní Roveň - dálnice D35, oprava návozových tras	Silnice III. třídy	Dokončeno	23. 6. 2025	10/2025	50.012302	15.99312	9 180 000 Kč		apdos-pardubice	https://apdos.roadmedia.cz/json/data-pardubice.json
2023	Dolní Čermná, oprava silnice III/31415	Silnice III. třídy	Dokončeno	08/2023	09/2023	49.977436	16.566902	342 382 Kč		apdos-pardubice	https://apdos.roadmedia.cz/json/data-pardubice.json
2023	Havárie mostu, opěrné zdi na silnici III/36620 u obce Jaroměřice, most ev.č.36620-1	Silnice III. třídy	Dokončeno	07/2023	11/2023	49.613873	16.76743	11 610 534 Kč	15 861 698 Kč	apdos-pardubice	https://apdos.roadmedia.cz/json/data-pardubice.json
2023	Hlinsko II/343 ul. Rváčovská	II/343	Dokončeno	09/2022	06/2023	49.762638	15.894779	15 782 533 Kč	19 662 724 Kč	apdos-pardubice	https://apdos.roadmedia.cz/json/data-pardubice.json
2023	II/316 Běstovice - sanace sesuvu půdy	II/316	Dokončeno	05/2022	01/2023	50.025517	16.213772	5 808 555 Kč	10 741 781 Kč	apdos-pardubice	https://apdos.roadmedia.cz/json/data-pardubice.json
2021	II/322 OŽK	II/322	Dokončeno	15.12.2020	30.01.2021	50.0	14.7	1014596		apdos-pardubice	https://apdos.roadmedia.cz/json/data-pardubice.json
2023	II/357 Proseč - vj.brána+BUS zálivy	II/357	Dokončeno	04/2023	06/2023	49.796883	16.116123	4 020 756 Kč	4 865 115 Kč	apdos-pardubice	https://apdos.roadmedia.cz/json/data-pardubice.json
2024	II/368 - Křenov – Březina	II/368	Dokončeno	05/2024	06/2024	49.66479	16.633371	7 702 500 Kč		apdos-pardubice	https://apdos.roadmedia.cz/json/data-pardubice.json
2025	III/01427 Rybník, opěrná zeď	III/01427	Dokončeno	07/2025	12/2025	49.89065	16.469397	13 992 025 Kč		apdos-pardubice	https://apdos.roadmedia.cz/json/data-pardubice.json
2022	III/322 19 Mělice – II/333	Silnice III. třídy	Dokončeno	07/2022	09/2022	50.038853	15.621773		34 279 165 Kč	apdos-pardubice	https://apdos.roadmedia.cz/json/data-pardubice.json
2023	III/337 48, III/337 50, III/337 51 Kostelec u Heřmanova Městce	Silnice III. třídy	Dokončeno	11/2022	08/2023	49.928074	15.65187	17 643 818 Kč	23 509 664 Kč	apdos-pardubice	https://apdos.roadmedia.cz/json/data-pardubice.json
2021	III/35520 Louka – Habroveč	Silnice III. třídy	Dokončeno	09.09.2021	30.09.2021	50.0	14.7	2400000		apdos-pardubice	https://apdos.roadmedia.cz/json/data-pardubice.json
2024	Jevíčko II/366 ul. Třebízská	II/366	Dokončeno	05/2024	05/2024	49.63322	16.710785	5 883 046 Kč		apdos-pardubice	https://apdos.roadmedia.cz/json/data-pardubice.json
2024	Křižovatka II/355 x III/2983 Černá za Bory	Silnice III. třídy	Dokončeno	10/2024	11/2024	50.024925	15.828546	1 141 612 Kč		apdos-pardubice	https://apdos.roadmedia.cz/json/data-pardubice.json
2024	Litomyšl - obnova krytu silnice III/36016	Silnice III. třídy	Dokončeno	08/2024	10/2024	49.884453	16.293291	3 861 354 Kč		apdos-pardubice	https://apdos.roadmedia.cz/json/data-pardubice.json
2025	Městys Choltice - opěrná zeď u silnice III/3429	Silnice III. třídy	Dokončeno	04/2025	06/2025	49.98905	15.62897	909 091 Kč		apdos-pardubice	https://apdos.roadmedia.cz/json/data-pardubice.json
2025	Modernizace II/324 Staré Hradiště – Hrobice (průtah)	II/324	Dokončeno	07/2024	12/2025	50.089817	15.785055	125 803 580 Kč		apdos-pardubice	https://apdos.roadmedia.cz/json/data-pardubice.json
2023	Modernizace mostu ev. č. 317-005A Choceň	II/317	Dokončeno	2. 5. 2023	12/2023	50.00019	16.226725	44 495 672 Kč	54 015 248 Kč	apdos-pardubice	https://apdos.roadmedia.cz/json/data-pardubice.json
2022	Modernizace mostu ev. č. 322-011 Trnávka	II/322	Dokončeno	08/2020	12/2022	50.03195	15.443686		16 204 838 Kč	apdos-pardubice	https://apdos.roadmedia.cz/json/data-pardubice.json
2023	Modernizace mostu ev. č. 322-014 Chvaletice	II/322	Dokončeno	05/2023	12/2023	50.030083	15.46422	38 285 108 Kč	47 694 529 Kč	apdos-pardubice	https://apdos.roadmedia.cz/json/data-pardubice.json
2021	Modernizace mostu ev. č. 333 - 003 Přelouč	II/333	Dokončeno	04/2021	08/2021	50.04348	15.573978	33 442 875 Kč	42 851 176 Kč	apdos-pardubice	https://apdos.roadmedia.cz/json/data-pardubice.json
2024	Modernizace mostu ev. č. 357-009A Nové Hrady	II/357	Dokončeno	05/2024	09/2024	49.849163	16.131958	10 443 043		apdos-pardubice	https://apdos.roadmedia.cz/json/data-pardubice.json
2024	Modernizace mostu ev. č. 357-010 Nové Hrady	II/357	Dokončeno	05/2024	09/2024	49.848717	16.132004	12 969 556		apdos-pardubice	https://apdos.roadmedia.cz/json/data-pardubice.json
2023	Modernizace mostu ev. č. 358-010 Polanka	II/358	Dokončeno	09/2023	11/2023	49.844814	16.127268	10026955		apdos-pardubice	https://apdos.roadmedia.cz/json/data-pardubice.json
2021	Modernizace mostu ev. č. 358-014 Višňáry	Silnice III. třídy	Dokončeno	04/2021	07/2021	49.87266	16.264265	10 518 928 Kč	13 641 756 Kč	apdos-pardubice	https://apdos.roadmedia.cz/json/data-pardubice.json
2021	Modernizace mostu ev. č. 360-007 Dolní Dobrouč	II/360	Dokončeno	04/2021	07/2021	50.004585	16.470474	10 068 165 Kč	13 251 927 Kč	apdos-pardubice	https://apdos.roadmedia.cz/json/data-pardubice.json
2022	Modernizace mostu ev. č. 360-014 Řetůvka	II/360	Dokončeno	07/2022	11/2022	49.953526	16.35995	15 267 558 Kč	19 891 797 Kč	apdos-pardubice	https://apdos.roadmedia.cz/json/data-pardubice.json
2021	Modernizace mostu ev. č. 360-016 Němčice	II/360	Dokončeno	04/2021	08/2021	49.892506	16.329433	9 030 969	12 419 583 Kč	apdos-pardubice	https://apdos.roadmedia.cz/json/data-pardubice.json
2022	Modernizace mostu ev. č. 360 - 017 - Němčice	II/360	Dokončeno	06/2022	10/2022	49.892025	16.328642	10 117 509 Kč	13 016 950 Kč	apdos-pardubice	https://apdos.roadmedia.cz/json/data-pardubice.json
2024	Modernizace silnice II/310 Letohrad, K Cihelně	II/310	Dokončeno	06/2024	10/2024	50.039997	16.490196	24 716 286 Kč	33 212 296 Kč	apdos-pardubice	https://apdos.roadmedia.cz/json/data-pardubice.json
2024	Modernizace silnice II/312 Choceň – České Libchavy	II/312	Dokončeno	03/2023	10/2024	50.020832	16.310774	199 178 164 Kč		apdos-pardubice	https://apdos.roadmedia.cz/json/data-pardubice.json
2023	Modernizace silnice II/315 Hrádek - Ústí nad Orlicí	II/315	Dokončeno	10/2021	08/2023	49.968204	16.37241	58 838 527 Kč	94320672	apdos-pardubice	https://apdos.roadmedia.cz/json/data-pardubice.json
2023	Modernizace silnice II/315 Ústí nad Orlicí (od křižovatky s I/14) - Skuhrov	II/315	Dokončeno	09/2022	06/2023	49.94913	16.466146	82156042		apdos-pardubice	https://apdos.roadmedia.cz/json/data-pardubice.json
2023	Modernizace silnice II/322 Kojice	II/322	Dokončeno	09/2021	04/2023	50.04317	15.391692	264 420 679 Kč	335 306 321 Kč	apdos-pardubice	https://apdos.roadmedia.cz/json/data-pardubice.json
2023	Modernizace silnice II/322 Komárov – napojení na D35	II/322	Dokončeno	10/2022	08/2023	50.03862	15.938959	29 228 570 Kč	37 843 350 Kč	apdos-pardubice	https://apdos.roadmedia.cz/json/data-pardubice.json
2022	Modernizace silnice II/337 Seč – Třemošnice (křižovatka s III/33741)	II/337	Dokončeno	04/2021	06/2022	49.858437	15.645831	151 190 619 Kč	186 207 302	apdos-pardubice	https://apdos.roadmedia.cz/json/data-pardubice.json
2025	Modernizace silnice II/337 Třemošnice – hranice Pk	II/337	Dokončeno	03/2024	09/2025	49.887756	15.535293	108 878 550 Kč		apdos-pardubice	https://apdos.roadmedia.cz/json/data-pardubice.json
2022	Modernizace silnice II/343 Hlinsko I.etapa - průtah	II/343	Dokončeno	09/2021	10/2022	49.760525	15.912825	27 734 707 Kč	35 261 907 Kč	apdos-pardubice	https://apdos.roadmedia.cz/json/data-pardubice.json
2023	Modernizace silnice II/343 Vršov – Seč, křižovatka s II/337	II/343	Dokončeno	2021	31. 7. 2023	49.818752	15.709737	130293492	163 259 217	apdos-pardubice	https://apdos.roadmedia.cz/json/data-pardubice.json
2021	Modernizace silnice II/343 Vršov – Trhová Kamenice	II/343	Dokončeno	15.07.2020	30.04.2021	50.0	14.7	124 407 618 Kč	155 353 746 Kč	apdos-pardubice	https://apdos.roadmedia.cz/json/data-pardubice.json
2021	Modernizace silnice II/360 Polička - Korouhev - hranice kraje	II/360	Dokončeno	04/2021	09/2021	49.672485	16.26406	72 408 722 Kč	88 395 116 Kč	apdos-pardubice	https://apdos.roadmedia.cz/json/data-pardubice.json
2023	Modernizace silnice II/360 ÚO - Litomyšl, zastávka BUS Sloupnice	II/360	Dokončeno	2023	2023	49.921192	16.338757	305 785 Kč		apdos-pardubice	https://apdos.roadmedia.cz/json/data-pardubice.json
2023	Modernizace silnice II/360 Ústí nad Orlicí – Litomyšl	II/360	Dokončeno	09/2021	05/2023	49.9008	16.332256	93 687 137 Kč	127 066 921 Kč	apdos-pardubice	https://apdos.roadmedia.cz/json/data-pardubice.json
2022	Modernizace silnice II/362 Polička – Jedlová	II/362	Dokončeno	5. 9. 2022	12/2022	49.680935	16.291544	78 060 424		apdos-pardubice	https://apdos.roadmedia.cz/json/data-pardubice.json
2021	Modernizace silnice II/366 Křenov – Zadní Arnoštov	II/366	Dokončeno	08/2020	07/2021	49.665146	16.651798	48 866 980 Kč	64 431 274 Kč	apdos-pardubice	https://apdos.roadmedia.cz/json/data-pardubice.json
2023	Modernizace silnice II/366 Pohledy – křižovatka s I/43	II/366	Dokončeno	1. 3. 2023	12/2023	49.70409	16.547157	138 269 942 Kč		apdos-pardubice	https://apdos.roadmedia.cz/json/data-pardubice.json
2022	Modernizace silnice II/366 Pohledy (včetně průtahu obcí) - Křenov křižovatka s II/368, I., II. a III. etapa	II/366	Dokončeno	08/2021	09/2022	49.685253	16.608948	147 768 564	196 333 203	apdos-pardubice	https://apdos.roadmedia.cz/json/data-pardubice.json
2021	Modernizace silnice II/368 Moravská Třebová - průtah	II/368	Dokončeno	04/2021	10/2021	49.76207	16.664509	33 125 536 Kč	43 068 692	apdos-pardubice	https://apdos.roadmedia.cz/json/data-pardubice.json
2022	Modernizace silnice II/368 Třebařov - průtah	II/368	Dokončeno	05/2022	10/2022	49.82729	16.702549	61 431 259 Kč	76 442 167 Kč	apdos-pardubice	https://apdos.roadmedia.cz/json/data-pardubice.json
2021	Modernizace silnice II/371 Jevíčko - Jaroměřice, km 19,950 - 17,100	II/371	Dokončeno	04/2021	10/2021	49.63125	16.723492	57 169 378 Kč	68 873 045 Kč	apdos-pardubice	https://apdos.roadmedia.cz/json/data-pardubice.json
2021	Modernizace silnice III/0362 Staré Hradiště – Ohrazenice	Silnice III. třídy	Dokončeno	18.05.2020	30.04.2021	50.0	14.7		35 960 091 Kč	apdos-pardubice	https://apdos.roadmedia.cz/json/data-pardubice.json
2025	Modernizace silnice III/29817 Holice ul. Bratří Čapků\t\t\t\t	Silnice III. třídy	Dokončeno	8/2024	10/2025	50.072186	15.977125	55 250 000 Kč		apdos-pardubice	https://apdos.roadmedia.cz/json/data-pardubice.json
2023	Modernizace silnice III/29823 Hrachoviště	Silnice III. třídy	Dokončeno	06/2022	06/2023	50.123867	15.883209	30 216 204 Kč	37 514 635 Kč	apdos-pardubice	https://apdos.roadmedia.cz/json/data-pardubice.json
2022	Modernizace silnice III/305 23 ul.Vraclavská,Vysoké Mýto	Silnice III. třídy	Dokončeno	09/2021	04/2022	49.953407	16.143997		11 857 935 Kč	apdos-pardubice	https://apdos.roadmedia.cz/json/data-pardubice.json
2024	Modernizace silnice III/305 23 Vraclav	Silnice III. třídy	Dokončeno	02/2024	15. 11. 2024	49.96807	16.091967	25 153 113 Kč		apdos-pardubice	https://apdos.roadmedia.cz/json/data-pardubice.json
2023	Modernizace silnice III/33748 Heřmanův Městec - III. etapa	Silnice III. třídy	Dokončeno	2023	2023	49.925747	15.651312	6 157 025 Kč		apdos-pardubice	https://apdos.roadmedia.cz/json/data-pardubice.json
2021	Modernizace silnice III/3542 Česká Rybná – průtah	Silnice III. třídy	Dokončeno	21.09.2020	10.06.2021	50.0	14.7		30 558 576	apdos-pardubice	https://apdos.roadmedia.cz/json/data-pardubice.json
2025	Modernizace silnice III/3542 Proseč – Průtah	Silnice III. třídy	Dokončeno	14. 4. 2025	6. 6. 2025	49.806828	16.114265	5 705 105 Kč		apdos-pardubice	https://apdos.roadmedia.cz/json/data-pardubice.json
2023	Modernizace silnice III/360 12 ul.Kubelkova,Česká Třebová	Silnice III. třídy	Dokončeno	09/2022	12/2023	49.913433	16.4338	49 524 878 Kč	66 667 203 Kč	apdos-pardubice	https://apdos.roadmedia.cz/json/data-pardubice.json
2023	Modernizace silnice III/36018 Němčice	Silnice III. třídy	Dokončeno	08/2023	12/2023	49.891598	16.337172	4 759 314 Kč	6 723 511 Kč	apdos-pardubice	https://apdos.roadmedia.cz/json/data-pardubice.json
2023	Modernizace silnic III/3556, III/3557 Brčekoly	Silnice III. třídy	Dokončeno	10/2022	08/2023	49.9343	15.967546	28 429 457 Kč	35 801 872 Kč	apdos-pardubice	https://apdos.roadmedia.cz/json/data-pardubice.json
2021	Morašice – III/3389 – Průtah obcí	Silnice III. třídy	Dokončeno	12.07.2021	18.10.2021	50.0	14.7		12 093 726 Kč	apdos-pardubice	https://apdos.roadmedia.cz/json/data-pardubice.json
2024	Most ev.č.0375-3 Pohránov	Silnice III. třídy	Dokončeno	07/2024	09/2024	50.08106	15.748048	5 899 274 Kč	8 867 699 Kč	apdos-pardubice	https://apdos.roadmedia.cz/json/data-pardubice.json
2025	Most ev.č.32265-1 Bližňovice	Silnice III. třídy	Dokončeno	06/2024	06/2025	49.95437	15.951524	17 611 116 Kč		apdos-pardubice	https://apdos.roadmedia.cz/json/data-pardubice.json
2023	Most ev.č.3237-3 Řečany nad Labem_MP š.4,2 m osazení mimo most	Silnice III. třídy	Dokončeno	06/2023	10/2023	50.044785	15.47625	72 262 047 Kč	95 110 033 Kč	apdos-pardubice	https://apdos.roadmedia.cz/json/data-pardubice.json
2024	Most ev.č.33765-2 Křižanovice VD	Silnice III. třídy	Dokončeno	28. 6. 2023	11/2024	49.863106	15.775071	50 415 161 Kč	65 249 250 Kč	apdos-pardubice	https://apdos.roadmedia.cz/json/data-pardubice.json
2025	Most ev.č.3542-1 Miřetín	III/3542	Dokončeno	08/2025	12/2025	50.0	14.7	7 085 000 Kč		apdos-pardubice	https://apdos.roadmedia.cz/json/data-pardubice.json
2025	Most ev.č.358-004 Podlažice	II/358	Dokončeno	06/2025	09/2025	49.89495	15.954339	15 000 000 Kč		apdos-pardubice	https://apdos.roadmedia.cz/json/data-pardubice.json
2024	Napojení silnice II/322 na D35 MÚK Dašice	II/322	Dokončeno	10/2022	08/2024	50.020977	15.90907	394 195 789 Kč		apdos-pardubice	https://apdos.roadmedia.cz/json/data-pardubice.json
2022	Obnova silnice III/30535 Zbožnov, km 1,800 - 2,774	Silnice III. třídy	Dokončeno	08/2022	10/2022	49.85562	16.023148	10 601 818 Kč		apdos-pardubice	https://apdos.roadmedia.cz/json/data-pardubice.json
2024	Okružní křižovatka II/306 a II/358 Skuteč	II/306	Dokončeno	04/2024	06/2024	49.838398	15.990863	6 946 644 Kč		apdos-pardubice	https://apdos.roadmedia.cz/json/data-pardubice.json
2023	Okružní křižovatka silnic II/211 x III/0361 Lázně Bohdaneč	II/211	Dokončeno	19.6.2023	09/2023	50.085564	15.667509	8 591 475 Kč	12 005 568 Kč	apdos-pardubice	https://apdos.roadmedia.cz/json/data-pardubice.json
2023	Opěrná zeď II/317 České Heřmanice	II/317	Dokončeno	09/2023	11/2023	49.930294	16.253649	4 251 866 Kč	5 152 018 Kč	apdos-pardubice	https://apdos.roadmedia.cz/json/data-pardubice.json
2025	Opěrná zeď II/353 Kamenec	Silnice III. třídy	Dokončeno	09/2024	03/2025	49.709885	16.240948	6 157 025 Kč		apdos-pardubice	https://apdos.roadmedia.cz/json/data-pardubice.json
2023	Opěrná zeď II/354 Krouna	II/354	Dokončeno	08/2023	10/2023	49.76973	16.028492	1 973 468 Kč		apdos-pardubice	https://apdos.roadmedia.cz/json/data-pardubice.json
2024	Opěrná zeď III/3561 Radim	Silnice III. třídy	Dokončeno	09/2024	12/2024	49.89878	16.01715			apdos-pardubice	https://apdos.roadmedia.cz/json/data-pardubice.json
2021	Oprava III/358 33 Předhradí – Lešany	Silnice III. třídy	Dokončeno	22.03.2021	30.06.2021	50.0	14.7	14647119		apdos-pardubice	https://apdos.roadmedia.cz/json/data-pardubice.json
2023	Oprava objízdné trasy II/360 ÚO - Litomyšl, Kornice	Silnice III. třídy	Dokončeno	2023	2023	49.89615	16.305222	1 921 487 Kč		apdos-pardubice	https://apdos.roadmedia.cz/json/data-pardubice.json
2024	Oprava odvodnění silnice III/32728 Sopřeč	Silnice III. třídy	Dokončeno	10/2024	11/2024	50.089993	15.556709	6 677 860 Kč		apdos-pardubice	https://apdos.roadmedia.cz/json/data-pardubice.json
2024	Oprava propustku na silnici III/3409 Petříkovice – Liboměřice	Silnice III. třídy	Dokončeno	05/2024	06/2024	49.87138	15.734967	2 478 927 Kč		apdos-pardubice	https://apdos.roadmedia.cz/json/data-pardubice.json
2023	Oprava silnice II/306 Prosetín	II/306	Dokončeno	04/2023	07/2023	49.832375	15.959517	9 755 919 Kč		apdos-pardubice	https://apdos.roadmedia.cz/json/data-pardubice.json
2023	Oprava silnice II/311 - lom Mistrovice	II/311	Dokončeno	09/2023	10/2023	50.018135	16.58116	3 949 948 Kč	5 416 200 Kč	apdos-pardubice	https://apdos.roadmedia.cz/json/data-pardubice.json
2024	Oprava silnice II/356 Radim	II/356	Dokončeno	08/2024	11/2024	49.89738	16.016068			apdos-pardubice	https://apdos.roadmedia.cz/json/data-pardubice.json
2023	Oprava silnice II/358 Chrast – Podlažice	II/358	Dokončeno	08/2023	10/2023	49.894882	15.954612	8 985 853 Kč	11 555 339 Kč	apdos-pardubice	https://apdos.roadmedia.cz/json/data-pardubice.json
2023	Oprava silnice II/358 Kutřín 	II/358	Dokončeno	10/2022	01/2023	49.822876	16.061338	7 309 492 Kč	10 055 410 Kč	apdos-pardubice	https://apdos.roadmedia.cz/json/data-pardubice.json
2023	Oprava silnice III/03530 Litomyšl, napojení na I/35	Silnice III. třídy	Dokončeno	2023	2023	49.865788	16.317774	3 481 240 Kč		apdos-pardubice	https://apdos.roadmedia.cz/json/data-pardubice.json
2023	Oprava silnice III/03530 Litomyšl - Strakov - Janov	Silnice III. třídy	Dokončeno	09/2022	10/2023	49.85793	16.372368	12 083 826 Kč	14 727 353 Kč	apdos-pardubice	https://apdos.roadmedia.cz/json/data-pardubice.json
2023	Oprava silnice III/2984 Sezemice, Husovo náměstí	Silnice III. třídy	Dokončeno	05/2023	07/2023	50.065155	15.8478985	8 855 126 Kč	11 366 204 Kč	apdos-pardubice	https://apdos.roadmedia.cz/json/data-pardubice.json
2024	Oprava silnice III/30511 Ostřetín - Horní Jelení	Silnice III. třídy	Dokončeno	28. 10. 2024	15. 11. 2024	50.04608	16.070055	4 105 200 Kč		apdos-pardubice	https://apdos.roadmedia.cz/json/data-pardubice.json
2021	Oprava silnice III/3051 Albrechtice – Vysoké Chvojno	Silnice III. třídy	Dokončeno	07.09.2020	30.06.2021	50.0	14.7	32453129		apdos-pardubice	https://apdos.roadmedia.cz/json/data-pardubice.json
2025	Oprava silnice III/305 32 Brdo - Hluboká	Silnice III. třídy	Dokončeno	14. 10. 2024	07/2025	49.851078	16.07352	14 037 616 Kč		apdos-pardubice	https://apdos.roadmedia.cz/json/data-pardubice.json
2025	Oprava silnice III/30532 Brdo - Hluboká, komunikace extravilán	Silnice III. třídy	Dokončeno	04/2025	06/2025	50.0	14.7	19 539 042 Kč		apdos-pardubice	https://apdos.roadmedia.cz/json/data-pardubice.json
2023	Oprava silnice III/31113 Jablonné nad Orlicí – Bystřec I.etapa	Silnice III. třídy	Dokončeno	09/2022	08/2023	50.022167	16.607475	41 665 353 Kč	53 757 509 Kč	apdos-pardubice	https://apdos.roadmedia.cz/json/data-pardubice.json
2023	Oprava silnice III/31115 Bystřec - kamenolom	Silnice III. třídy	Dokončeno	09/2023	10/2023	50.00646	16.600798	4 114 486 Kč	5 063 858 Kč	apdos-pardubice	https://apdos.roadmedia.cz/json/data-pardubice.json
2022	Oprava silnice III/3124 Rozsocha – Velká Skrovnice	Silnice III. třídy	Dokončeno	19.4.2022	19.8.2022	50.026066	16.325092	41009366		apdos-pardubice	https://apdos.roadmedia.cz/json/data-pardubice.json
2021	Oprava silnice III/3124 Velká Skrovnice – hr.Pk	Silnice III. třídy	Dokončeno	02.08.2021	30.10.2021	50.0	14.7	22470000		apdos-pardubice	https://apdos.roadmedia.cz/json/data-pardubice.json
2021	Oprava silnice III/3141 v ul. Družstevní, Letohrad	Silnice III. třídy	Dokončeno	07.10.2021	30.10.2021	50.0	14.7	1840030		apdos-pardubice	https://apdos.roadmedia.cz/json/data-pardubice.json
2023	Oprava silnice III/315 19 Borušov	Silnice III. třídy	Dokončeno	08/2023	12/2023	49.77674	16.736238	12 074 373 Kč	15 101 815 Kč	apdos-pardubice	https://apdos.roadmedia.cz/json/data-pardubice.json
2024	Oprava silnice III/31519 Svojanov – Maletín	Silnice III. třídy	Dokončeno	2024	2024	49.78859	16.769102	3 228 592 Kč		apdos-pardubice	https://apdos.roadmedia.cz/json/data-pardubice.json
2024	Oprava silnice III/3152 Zámrsk, žel. přejezd - hřbitov	Silnice III. třídy	Dokončeno	08/2024	08/2024	49.994442	16.135456	1 407 850 Kč		apdos-pardubice	https://apdos.roadmedia.cz/json/data-pardubice.json
2024	Oprava silnice III/32263 ul. Smetanova, Moravany	Silnice III. třídy	Dokončeno	07/2024	08/2024	49.998783	15.945479	4 066 116 Kč		apdos-pardubice	https://apdos.roadmedia.cz/json/data-pardubice.json
2023	Oprava silnice III/322 71 Městec II. etapa	Silnice III. třídy	Dokončeno	07/2023	2023	49.9746	16.00774	5 889 975 Kč		apdos-pardubice	https://apdos.roadmedia.cz/json/data-pardubice.json
2024	Oprava silnice III/32271 Městec III. etapa	Silnice III. třídy	Dokončeno	05/2024	07/2024	49.976715	16.008299	5 869 574 Kč		apdos-pardubice	https://apdos.roadmedia.cz/json/data-pardubice.json
2025	Oprava silnice III/32271 Městec IV. etapa	Silnice III. třídy	Dokončeno	04/2025	06/2025	49.97781	16.008745	5 150 742 Kč		apdos-pardubice	https://apdos.roadmedia.cz/json/data-pardubice.json
2024	Oprava silnice III/3231 Vlčí Habřina	Silnice III. třídy	Dokončeno	09/2024	11/2024	50.08518	15.592621	5 890 007 Kč		apdos-pardubice	https://apdos.roadmedia.cz/json/data-pardubice.json
2023	Oprava silnice III/32717 Bílé Vchynice	Silnice III. třídy	Dokončeno	07/2022	01/2023	50.095478	15.438091	6 685 441 Kč	8 447 567 Kč	apdos-pardubice	https://apdos.roadmedia.cz/json/data-pardubice.json
2022	Oprava silnice III/33773 Miřetice – Dřeveš, I.etapa	Silnice III. třídy	Dokončeno	08/2021	05/2022	49.83327	15.910014	30 750 602 Kč		apdos-pardubice	https://apdos.roadmedia.cz/json/data-pardubice.json
2022	Oprava silnice III/33775 Miřetice, Na Perku	Silnice III. třídy	Dokončeno	08.11.2021	29.11.2022	50.0	14.7	7330100		apdos-pardubice	https://apdos.roadmedia.cz/json/data-pardubice.json
2023	Oprava silnice III/340 15 Smrkův Týnec	Silnice III. třídy	Dokončeno	06/2023	09/2023	49.895416	15.761163	6 949 107 Kč		apdos-pardubice	https://apdos.roadmedia.cz/json/data-pardubice.json
2025	Oprava silnice III/34031 Mikulovice	Silnice III. třídy	Dokončeno	4. 8. 2025	12/2025	49.990334	15.779062	10 408 698 Kč		apdos-pardubice	https://apdos.roadmedia.cz/json/data-pardubice.json
2023	Oprava silnice III/34311 Kameničky – Chlumětín	Silnice III. třídy	Dokončeno	09/2023	11/2023	49.732567	15.989238	18 310 785 Kč	23 130 446 Kč	apdos-pardubice	https://apdos.roadmedia.cz/json/data-pardubice.json
2023	Oprava silnice III/3438 Vortová – hr. Pk.	Silnice III. třídy	Dokončeno	10/2023	11/2023	49.701923	15.945642	8 634 045 Kč		apdos-pardubice	https://apdos.roadmedia.cz/json/data-pardubice.json
2024	Oprava silnice III/3530 Strakov – Janov, II. etapa	Silnice III. třídy	Dokončeno	09/2024	11/2024	49.86505	16.369356	5 873 989 Kč		apdos-pardubice	https://apdos.roadmedia.cz/json/data-pardubice.json
2024	Oprava silnice III/35720 Dvořiště – Doubravice	Silnice III. třídy	Dokončeno	12/2023	05/2024	49.87526	16.1065	8 431 134 Kč		apdos-pardubice	https://apdos.roadmedia.cz/json/data-pardubice.json
2023	Oprava silnice III/3582, III/3583, III/3584, III/3585 Kočí	Silnice III. třídy	Dokončeno	08/2023	11/2023	49.945736	15.855537	9 787 279 Kč	12 241 302 Kč	apdos-pardubice	https://apdos.roadmedia.cz/json/data-pardubice.json
2024	Oprava silnice III/3594 Říkovice (Morašice)	Silnice III. třídy	Dokončeno	07/2024	08/2024	49.860157	16.257187	2 971 074 Kč		apdos-pardubice	https://apdos.roadmedia.cz/json/data-pardubice.json
2021	Oprava silnice III/3598 Poříčí u Litomyšle – Zrnětín	Silnice III. třídy	Dokončeno	15.10.2020	31.05.2021	50.0	14.7	11187251		apdos-pardubice	https://apdos.roadmedia.cz/json/data-pardubice.json
2023	Oprava silnice III/366 12 Jevíčko – Smolná	Silnice III. třídy	Dokončeno	09/2023	10/2023	49.625164	16.686275	12 334 711 Kč		apdos-pardubice	https://apdos.roadmedia.cz/json/data-pardubice.json
2024	Oprava silnice III/36612 Smolná – Březina	Silnice III. třídy	Dokončeno	05/2024	06/2024	49.641617	16.632381	12 644 628 Kč		apdos-pardubice	https://apdos.roadmedia.cz/json/data-pardubice.json
2022	Oprava silnice III/368 12 Anenská Studánka – křiž. I/43_SO opěrná zeď	Silnice III. třídy	Dokončeno	04/2022	09/2022	49.856503	16.52397		8 340 194 Kč	apdos-pardubice	https://apdos.roadmedia.cz/json/data-pardubice.json
2021	Oprava silnice Libkov	Silnice III. třídy	Dokončeno	26.04.2021	30.05.2021	50.0	14.7	4485000		apdos-pardubice	https://apdos.roadmedia.cz/json/data-pardubice.json
2023	Oprava silnic III/32232 a III/32238 Třibřichy 	Silnice III. třídy	Dokončeno	06/2022	01/2023	49.96644	15.736902	8 044 917 Kč	10 238 920 Kč	apdos-pardubice	https://apdos.roadmedia.cz/json/data-pardubice.json
2024	Oprava vozovky III/33755 - Proseč - Hořelec, intravilán	Silnice III. třídy	Dokončeno	06/2024	07/2024	49.830296	15.6764345	5 289 798 Kč		apdos-pardubice	https://apdos.roadmedia.cz/json/data-pardubice.json
2024	Orel II/358 zklidnění dopravy	II/358	Dokončeno	06/2024	10/2024	49.919483	15.837311	16 937 218 Kč	25 005 732 Kč	apdos-pardubice	https://apdos.roadmedia.cz/json/data-pardubice.json
2024	Ostřešany III/34030 – I. etapa	Silnice III. třídy	Dokončeno	07/2024	11/2024	49.993206	15.805807	19 314 588 Kč		apdos-pardubice	https://apdos.roadmedia.cz/json/data-pardubice.json
2025	Ostřešany III/340 30 II.etapa	Silnice III. třídy	Dokončeno	11. 8. 2025	4. 12. 2025	49.992134	15.819025	19 179 698 Kč		apdos-pardubice	https://apdos.roadmedia.cz/json/data-pardubice.json
2023	OŽK křiž. I/36 a II/355 ul. Dašická, Pardubice	II/355	Dokončeno	09/2023	11/2023	50.0338	15.796683	1 132 231 Kč	1 478 482 Kč	apdos-pardubice	https://apdos.roadmedia.cz/json/data-pardubice.json
2023	Přeložka vodovodu u mostu ev.č.366 20-1 Jaroměřice	Silnice III. třídy	Dokončeno	2023	2023	49.61388	16.767372		3 775 629	apdos-pardubice	https://apdos.roadmedia.cz/json/data-pardubice.json
2024	Propojení silnice D35 a I/35 Rokytno – Býšť	II/298	Dokončeno	09/2022	07/2024	50.10361	15.899309	207 338 021 Kč		apdos-pardubice	https://apdos.roadmedia.cz/json/data-pardubice.json
2024	Propustek III/35846 Semanín	Silnice III. třídy	Dokončeno	07/2024	12/2024	49.86701	16.45463	14 035 864 Kč		apdos-pardubice	https://apdos.roadmedia.cz/json/data-pardubice.json
2025	Propustek Klenovka III/342 16	Silnice III. třídy	Dokončeno	08/2025	11/2025	50.0	14.7	2 353 000 Kč		apdos-pardubice	https://apdos.roadmedia.cz/json/data-pardubice.json
2025	Propustek silnice III/3389 Morašice	Silnice III. třídy	Dokončeno	07/2025	07/2025	50.00663	15.480805	3 599 400 Kč		apdos-pardubice	https://apdos.roadmedia.cz/json/data-pardubice.json
2023	Rekonstrukce mostu ev.č. 343-015 Kameničky	Silnice III. třídy	Dokončeno	04/2023	09/2023	49.738544	15.97564	18 274 660 Kč	23 737 877 Kč	apdos-pardubice	https://apdos.roadmedia.cz/json/data-pardubice.json
2023	Rekonstrukce opěrné zdi III/311 17 Třešňovec	Silnice III. třídy	Dokončeno	03/2023	08/2023	49.94405	16.598927	7 489 488 Kč	11 687 781 Kč	apdos-pardubice	https://apdos.roadmedia.cz/json/data-pardubice.json
2024	Rekonstrukce silnice a chodníků III/31911 Žamberk - ul. Draha	Silnice III. třídy	Dokončeno	06/2024	11/2024	50.090607	16.471535	15 493 334 Kč	22 193 086 Kč	apdos-pardubice	https://apdos.roadmedia.cz/json/data-pardubice.json
2024	Rekonstrukce silnice a mostů ev.č. 34039–1 a ev.č.34039–2 Mnětice	Silnice III. třídy	Dokončeno	06/2024	12/2024	50.01626	15.832144	22 974 300 Kč	44 690 223 Kč	apdos-pardubice	https://apdos.roadmedia.cz/json/data-pardubice.json
2021	Rekonstrukce silnice II/211 Lázně Bohdaneč, průtah I. a II.etapa	II/211	Dokončeno	05.07.2021	25.09.2021	50.0	14.7		55 597 797 Kč	apdos-pardubice	https://apdos.roadmedia.cz/json/data-pardubice.json
2022	Rekonstrukce silnice II/211 Lázně Bohdaneč, průtah III. a IV.etapa	II/211	Dokončeno	03/2022	06/2022	50.080856	15.673221	21 239 724 Kč		apdos-pardubice	https://apdos.roadmedia.cz/json/data-pardubice.json
2023	Rekonstrukce silnice II/298 Rokytno	II/298	Dokončeno	31. 3. 2023	10/2023	50.106915	15.893638	32 196 146 Kč	40 344 934 Kč	apdos-pardubice	https://apdos.roadmedia.cz/json/data-pardubice.json
2024	Rekonstrukce silnice II/310 Letohrad - Žamberk, Lukavice - průtah	II/310	Dokončeno	09/2023	10/2024	50.073837	16.473515	63 555 783 Kč		apdos-pardubice	https://apdos.roadmedia.cz/json/data-pardubice.json
2025	Rekonstrukce silnice II/322H Kojice – průtah	Silnice III. třídy	Dokončeno	08/2025	12/2025	50.04177	15.390567	16 798 400 Kč		apdos-pardubice	https://apdos.roadmedia.cz/json/data-pardubice.json
2025	Rekonstrukce silnice II/343 Hlinsko II. etapa	II/343	Dokončeno	05/2024	06/2025	49.763214	15.907555	45 499 040 Kč		apdos-pardubice	https://apdos.roadmedia.cz/json/data-pardubice.json
2025	Rekonstrukce silnice II/343 Hlinsko III. etapa	II/343	Dokončeno	08/2025	12/2025	50.0	14.7	19 667 670 Kč		apdos-pardubice	https://apdos.roadmedia.cz/json/data-pardubice.json
2023	Rekonstrukce silnice II/359 Budislav	II/359	Dokončeno	06/2023	10/2023	49.80066	16.175283	10 297 516 Kč	16 266 190 Kč	apdos-pardubice	https://apdos.roadmedia.cz/json/data-pardubice.json
2023	Rekonstrukce silnice II/359 Dolní Újezd I. etapa	II/359	Dokončeno	06/2022	05/2023	49.820286	16.249844	21 780 908 Kč	28 932 236 Kč	apdos-pardubice	https://apdos.roadmedia.cz/json/data-pardubice.json
2024	Rekonstrukce silnice II/359 Dolní Újezd II. etapa	II/359	Dokončeno	04/2024	07/2024	49.82278	16.250238	20 575 874 Kč	29 712 116 Kč	apdos-pardubice	https://apdos.roadmedia.cz/json/data-pardubice.json
2025	Rekonstrukce silnice III/298 10 Dražkov	Silnice III. třídy	Dokončeno	6/2025	7/2025	50.09151	15.83529	11 550 099 Kč		apdos-pardubice	https://apdos.roadmedia.cz/json/data-pardubice.json
2025	Rekonstrukce silnice III/3057 ul.Husova, Holice II. etapa	Silnice III. třídy	Dokončeno	09/2024	06/2025	50.071514	15.98664	11 959 595 Kč		apdos-pardubice	https://apdos.roadmedia.cz/json/data-pardubice.json
2023	Rekonstrukce silnice III/31218 Klášterec nad Orlicí I. etapa	Silnice III. třídy	Dokončeno	05/2023	09/2023	50.110977	16.555927	29 257 130 Kč	36 670 635 Kč	apdos-pardubice	https://apdos.roadmedia.cz/json/data-pardubice.json
2021	Rekonstrukce silnice III/31512 Česká Třebová–průtah I.etapa	Silnice III. třídy	Dokončeno	01.10.2019	14.05.2021	50.0	14.7		53 585 699	apdos-pardubice	https://apdos.roadmedia.cz/json/data-pardubice.json
2023	Rekonstrukce silnice III/31911 Žamberk – průtah I. etapa	Silnice III. třídy	Dokončeno	07/2023	10/2023	50.088	16.46729	6 671 371 Kč	10 613 118 Kč	apdos-pardubice	https://apdos.roadmedia.cz/json/data-pardubice.json
2021	Rekonstrukce silnice III/32212 Poběžovice u Přelouče	Silnice III. třídy	Dokončeno	23.08.2021	30.11.2021	50.0	14.7		20 718 229 Kč	apdos-pardubice	https://apdos.roadmedia.cz/json/data-pardubice.json
2025	Rekonstrukce silnice III/322 25 Černá u Bohdanče III. etapa	Silnice III. třídy	Dokončeno	03/2025	06/2025	50.05587	15.672828	5 885 000 Kč		apdos-pardubice	https://apdos.roadmedia.cz/json/data-pardubice.json
2025	Rekonstrukce silnice III/337 44, III/337 81, Načešice	Silnice III. třídy	Dokončeno	5. 5. 2025	11/2025	49.940388	15.627284	26 964 547 Kč		apdos-pardubice	https://apdos.roadmedia.cz/json/data-pardubice.json
2025	Rekonstrukce silnice III/343 10 Kameničky – Filipov	Silnice III. třídy	Dokončeno	06/2024	05/2025	49.74354	15.984185	26 351 351 Kč		apdos-pardubice	https://apdos.roadmedia.cz/json/data-pardubice.json
2023	Rekonstrukce silnice III/3437 Miřetice – křiž. III/355 22 Včelákov I.etapa	Silnice III. třídy	Dokončeno	08/2022	07/2023	49.825348	15.877244	42 349 841 Kč	53 069 312 Kč	apdos-pardubice	https://apdos.roadmedia.cz/json/data-pardubice.json
2023	Rekonstrukce silnice III/3437 Miřetice–křiž.III/35522 Včelákov II. a III. etapa	Silnice III. třídy	Dokončeno	04/2023	08/2023	49.825607	15.877081	42 349 841 Kč		apdos-pardubice	https://apdos.roadmedia.cz/json/data-pardubice.json
2023	Rekonstrukce silnice III/3439 Kladno	Silnice III. třídy	Dokončeno	05/2023	09/2023	49.772865	15.981975	20 027 066 Kč	27 770 191 Kč	apdos-pardubice	https://apdos.roadmedia.cz/json/data-pardubice.json
2021	Rekonstrukce silnice III/3561 Radim–průtah	Silnice III. třídy	Dokončeno	31.05.2021	31.08.2021	50.0	14.7		16 936 110 Kč	apdos-pardubice	https://apdos.roadmedia.cz/json/data-pardubice.json
2024	Rekonstrukce silnice III/35724 Borová – Oldříš II., III. a IV. etapa	Silnice III. třídy	Dokončeno	03/2022	06/2024	49.731316	16.17151	127 165 833 Kč	190 493 828	apdos-pardubice	https://apdos.roadmedia.cz/json/data-pardubice.json
2021	Rekonstrukce silnice III/35826 Chacholice–Vrbatův Kostelec, SO 103 Vrbatův Kostelec	Silnice III. třídy	Dokončeno	23.08.2021	30.11.2021	50.0	14.7		16 354 468 Kč	apdos-pardubice	https://apdos.roadmedia.cz/json/data-pardubice.json
2025	Rekonstrukce silnice III/36012 Česká Třebová ul. Kubelkova II. etapa	Silnice III. třídy	Dokončeno	1. 4. 2025	08/2025	49.90661	16.436989	19 960 439 Kč		apdos-pardubice	https://apdos.roadmedia.cz/json/data-pardubice.json
2023	Rekonstrukce silnice III/360 21 Čistá I. etapa	Silnice III. třídy	Dokončeno	09/2022	06/2023	49.824574	16.333872	34 584 039 Kč	46 499 561 Kč	apdos-pardubice	https://apdos.roadmedia.cz/json/data-pardubice.json
2023	Rekonstrukce silnice III/3661 křiž.I/34 – Vendolí II. etapa	Silnice III. třídy	Dokončeno	06/2022	04/2023	49.74024	16.418222	21 175 773 Kč	29 137 958 Kč	apdos-pardubice	https://apdos.roadmedia.cz/json/data-pardubice.json
2022	Rekonstrukce silnice III/3661 Vendolí – křiž.I/34 - I.etapa	Silnice III. třídy	Dokončeno	09/2021	04/2022	49.734707	16.398764	17 939 454 kč	25 461 393 Kč	apdos-pardubice	https://apdos.roadmedia.cz/json/data-pardubice.json
2024	Rekonstrukce silnice III/36625 Vendolí	Silnice III. třídy	Dokončeno	8. 7. 2024	15. 10. 2024	49.73133	16.435574	13 730 462 Kč	23 261 647 Kč	apdos-pardubice	https://apdos.roadmedia.cz/json/data-pardubice.json
2021	Rekonstrukce silnice III/36823 Kunčina	Silnice III. třídy	Dokončeno	29.06.2020	15.12.2021	50.0	14.7		71 912 255	apdos-pardubice	https://apdos.roadmedia.cz/json/data-pardubice.json
2023	Sanace silnice II/358 Slatiňany	II/358	Dokončeno	2023	2023	49.922283	15.807103	490 082 Kč		apdos-pardubice	https://apdos.roadmedia.cz/json/data-pardubice.json
2025	Silnice, chodníky a most ev.č. 35826-2 Vrbatův Kostelec	Silnice III. třídy	Dokončeno	06/2024	06/2025	49.858055	15.94068	13 557 464 Kč		apdos-pardubice	https://apdos.roadmedia.cz/json/data-pardubice.json
2025	Silnice II/306 Dřeveš - Prosetín	II/306	Dokončeno	9/2025	10/2025	50.0	14.7	5 839 731		apdos-pardubice	https://apdos.roadmedia.cz/json/data-pardubice.json
2025	Silnice II/327 Hr. PK - Hradišťko II	II/327	Dokončeno	09/2025	11/2025	50.101543	15.406437	11 888 400 Kč		apdos-pardubice	https://apdos.roadmedia.cz/json/data-pardubice.json
2021	Silnice II/337 Skutíčko	II/337	Dokončeno	10.07.2021	15.08.2021	50.0	14.7	5795218		apdos-pardubice	https://apdos.roadmedia.cz/json/data-pardubice.json
2021	Silnice II/337 Vrbatův Kosterlec (dofinancování)	II/337	Dokončeno	20.09.2020	10.04.2021	50.0	14.7	1091726		apdos-pardubice	https://apdos.roadmedia.cz/json/data-pardubice.json
2024	Silnice II/340 Kostěnice	II/340	Dokončeno	08/2024	10/2024	50.0131	15.8909	5 851 491 Kč		apdos-pardubice	https://apdos.roadmedia.cz/json/data-pardubice.json
2024	Silnice II/356 Radim a Luže	II/356	Dokončeno	07/2024	10/2024	49.891586	16.031744	6 323 779 Kč		apdos-pardubice	https://apdos.roadmedia.cz/json/data-pardubice.json
2025	Silnice II/360 Ústí nad Orlicí, ul. Letohradská - žel. přejezd	II/360	Dokončeno	5. 5. 2025	11/2025	49.978687	16.404766	35 592 427 Kč		apdos-pardubice	https://apdos.roadmedia.cz/json/data-pardubice.json
2024	Silnice II/366 ul. Pražská, Svitavy	II/366	Dokončeno	15. 11. 2024	12/2024	49.76189	16.456705	7 263 945 Kč		apdos-pardubice	https://apdos.roadmedia.cz/json/data-pardubice.json
2025	Silnice III/30532 Hluboká – křiž. II/358 Perálec	Silnice III. třídy	Dokončeno	23. 10. 2025	12/2025	49.83469	16.066698	15 440 000 Kč		apdos-pardubice	https://apdos.roadmedia.cz/json/data-pardubice.json
2023	Silnice III/305 3 Chvojenec	Silnice III. třídy	Dokončeno	08/2023	10/2023	50.110966	15.946175	9 028 568 Kč	12 059 627 Kč	apdos-pardubice	https://apdos.roadmedia.cz/json/data-pardubice.json
2024	Silnice III/3055 Holice – Borohrádek	Silnice III. třídy	Dokončeno	14. 10. 2024	16. 12. 2024	50.098537	16.05827			apdos-pardubice	https://apdos.roadmedia.cz/json/data-pardubice.json
2024	Silnice III/3055 hr. PK – křiž. s III/3183	Silnice III. třídy	Dokončeno	14. 10. 2024	6. 12. 2024	50.104202	16.00913	12 427 200 Kč		apdos-pardubice	https://apdos.roadmedia.cz/json/data-pardubice.json
2025	Silnice III/3055 Vysoké Chvojno - křiž. III/3183 hájovna	Silnice III. třídy	Dokončeno	11. 8. 2025	10/2025	50.0	14.7	18 890 000 Kč		apdos-pardubice	https://apdos.roadmedia.cz/json/data-pardubice.json
2022	Silnice III/3061, III/355 24 Raná	Silnice III. třídy	Dokončeno	03/2022	06/2022	49.797863	15.963265	12 755 841 Kč		apdos-pardubice	https://apdos.roadmedia.cz/json/data-pardubice.json
2022	Silnice III/3061, III/355 26 Vojtěchov	Silnice III. třídy	Dokončeno	04/2022	06/2022	49.786953	15.976207	14 665 318 Kč		apdos-pardubice	https://apdos.roadmedia.cz/json/data-pardubice.json
2021	Silnice III/3061 Mrákotín	Silnice III. třídy	Dokončeno	14. 9. 2021	27. 10. 2021	49.814598	15.9564705	6 201 334 Kč		apdos-pardubice	https://apdos.roadmedia.cz/json/data-pardubice.json
2023	Silnice III/3061 Vrbatův Kostelec - Cejřov	Silnice III. třídy	Dokončeno	2023	2023	49.84822	15.944608	13 388 429 Kč		apdos-pardubice	https://apdos.roadmedia.cz/json/data-pardubice.json
2021	Silnice III/3062 Ždárec u Skutče	Silnice III. třídy	Dokončeno	8. 11. 2021	30. 11. 2021	49.82651	15.991176	545 000 Kč		apdos-pardubice	https://apdos.roadmedia.cz/json/data-pardubice.json
2023	Silnice III/31110 Jamné nad Orlicí, I. etapa	Silnice III. třídy	Dokončeno	07/2023	09/2023	50.04003	16.625877	5 878 108 Kč	7 284 817 Kč	apdos-pardubice	https://apdos.roadmedia.cz/json/data-pardubice.json
2024	Silnice III/31110 Jamné nad Orlicí II. etapa	Silnice III. třídy	Dokončeno	09/2024	10/2024	50.040073	16.634756	5 748 976 Kč		apdos-pardubice	https://apdos.roadmedia.cz/json/data-pardubice.json
2021	Silnice III/311 17 Horní Třešňovec	Silnice III. třídy	Dokončeno	13. 9. 2021	30. 10. 2021	49.939484	16.601955		15 049 494 Kč	apdos-pardubice	https://apdos.roadmedia.cz/json/data-pardubice.json
2024	Silnice III/31227 Dolní Morava I. etapa	Silnice III. třídy	Dokončeno	09/2024	11/2024	50.116	16.797049	7 959 672 Kč		apdos-pardubice	https://apdos.roadmedia.cz/json/data-pardubice.json
2025	Silnice III/31277 Dolní Morava + objízdné trasy, etapa II.	III/31227	Dokončeno	09/2025	11/2025	50.127106	16.799212	10 660 091 Kč		apdos-pardubice	https://apdos.roadmedia.cz/json/data-pardubice.json
2021	Silnice III/322 46 Kostěnice	Silnice III. třídy	Dokončeno	2. 9. 2021	30. 10. 2021	50.012184	15.905242	7 160 000 Kč		apdos-pardubice	https://apdos.roadmedia.cz/json/data-pardubice.json
2024	Silnice III/3225 Chvaletice - křiž. I/2	Silnice III. třídy	Dokončeno	09/2024	11/2024	50.03341	15.418136	11 884 000 Kč		apdos-pardubice	https://apdos.roadmedia.cz/json/data-pardubice.json
2024	Silnice III/322 60 Čeradice - křiž. s III/322 63	Silnice III. třídy	Dokončeno	2024	2024	49.99824	15.981863	11 157 024 Kč		apdos-pardubice	https://apdos.roadmedia.cz/json/data-pardubice.json
2024	Silnice III/3236 Pravy	Silnice III. třídy	Dokončeno	10/2024	11/2024	50.13018	15.625704	5 397 650 Kč		apdos-pardubice	https://apdos.roadmedia.cz/json/data-pardubice.json
2025	Silnice III/32722 Břehy - Sopřeč	Silnice III. třídy	Dokončeno	1. 4. 2025	9. 7. 2025	50.064686	15.552555	45 494 301 Kč		apdos-pardubice	https://apdos.roadmedia.cz/json/data-pardubice.json
2021	Silnice III/337 33 Ronov nad Doubravou, Kněžice	Silnice III. třídy	Dokončeno	09.09.2021	30.09.2021	49.875343	15.529758	1 885 750 Kč		apdos-pardubice	https://apdos.roadmedia.cz/json/data-pardubice.json
2022	Silnice III/338 10, III/338 11, III/338 12 Jankovice, Kozašice	Silnice III. třídy	Dokončeno	04/2022	10/2022	50.010757	15.525312	17 219 633 Kč		apdos-pardubice	https://apdos.roadmedia.cz/json/data-pardubice.json
2022	Silnice III/338 10 Podhořany – hr.Pk	Silnice III. třídy	Dokončeno	04/2022	10/2022	49.93623	15.531981		32 262 341 Kč	apdos-pardubice	https://apdos.roadmedia.cz/json/data-pardubice.json
2021	Silnice III/340 44 Kostěnice	Silnice III. třídy	Dokončeno	02.09.2021	30.11.2021	50.01196	15.902744	7 200 000 Kč		apdos-pardubice	https://apdos.roadmedia.cz/json/data-pardubice.json
2021	Silnice III/3432 Trhová Kamenice	Silnice III. třídy	Dokončeno	29.09.2021	30.10.2021	49.787483	15.821334	3 025 000 Kč		apdos-pardubice	https://apdos.roadmedia.cz/json/data-pardubice.json
2024	Silnice III/3437 Miřetice - křiž. III/35522 Včelákov II. etapa	Silnice III. třídy	Dokončeno	05/2024	09/2024	49.83571	15.87872	12 833 182 Kč	17 576 691 Kč	apdos-pardubice	https://apdos.roadmedia.cz/json/data-pardubice.json
2021	Silnice III/344 17 Trhová Kamenice	Silnice III. třídy	Dokončeno	24.05.2021	21.06.2021	49.782856	15.811603	4 157 051 Kč		apdos-pardubice	https://apdos.roadmedia.cz/json/data-pardubice.json
2024	Silnice III/35410 Martinice	Silnice III. třídy	Dokončeno	04/2024	07/2024	49.77968	16.103674	5 875 478 Kč		apdos-pardubice	https://apdos.roadmedia.cz/json/data-pardubice.json
2021	Silnice III/3545 Záboří – křiž. III/354 10 Martinice	Silnice III. třídy	Dokončeno	09.09.2021	29.09.2021	49.790134	16.100292	6 620 200 Kč		apdos-pardubice	https://apdos.roadmedia.cz/json/data-pardubice.json
2023	Silnice III/35720 Doubravice	Silnice III. třídy	Dokončeno	08/2023	12/2023	49.875526	16.097588	5 900 261 Kč	7 273 054 Kč	apdos-pardubice	https://apdos.roadmedia.cz/json/data-pardubice.json
2025	Silnice III/35817, III/35814 Lukavice	Silnice III. třídy	Dokončeno	10/2025	12/2025	50.0	14.7	8 968 735 Kč		apdos-pardubice	https://apdos.roadmedia.cz/json/data-pardubice.json
2022	Silnice III/36021, III/36020 a III/360 23 Trstěnice, I.etapa	Silnice III. třídy	Dokončeno	09/2021	04/2022	49.79736	16.34472	13 008 233 Kč		apdos-pardubice	https://apdos.roadmedia.cz/json/data-pardubice.json
2024	Silnice III/36612 Bělá u Jevíčka	Silnice III. třídy	Dokončeno	07/2024	08/2024	49.63632	16.645721	5 889 353 Kč		apdos-pardubice	https://apdos.roadmedia.cz/json/data-pardubice.json
2025	Silnice III/36810 Lanškroun, ul. Lidická	Silnice III. třídy	Dokončeno	2. 6. 2025	11/2025	49.908752	16.614824	32 075 507 Kč		apdos-pardubice	https://apdos.roadmedia.cz/json/data-pardubice.json
2024	Silnice III/368 11 Trpík, průtah	Silnice III. třídy	Dokončeno	04/2024	07/2024	49.849266	16.570145	21 479 566 Kč	28 616 697 Kč	apdos-pardubice	https://apdos.roadmedia.cz/json/data-pardubice.json
2024	Silnice III/36825 Moravská Třebová – Rozstání, I. etapa	Silnice III. třídy	Dokončeno	10/2024	12/2024	49.741066	16.709038	9 696 576 Kč		apdos-pardubice	https://apdos.roadmedia.cz/json/data-pardubice.json
2024	Spytovice - úprava křižovatky silnic III/3228 a III/3228a	Silnice III. třídy	Dokončeno	08/2024	10/2024	50.028168	15.486607	2 644 847 Kč		apdos-pardubice	https://apdos.roadmedia.cz/json/data-pardubice.json
2023	Úprava křiž. II/368 a III/3711 Moravská Třebová	II/368	Dokončeno	24. 4. 2023	31. 8. 2023	49.759834	16.665276	11 015 629 Kč	15 139 947 Kč	apdos-pardubice	https://apdos.roadmedia.cz/json/data-pardubice.json
2023	Úprava odvodnění silnice III/29823 Hrachoviště - Borek	Silnice III. třídy	Dokončeno	04/2023	06/2023	50.126736	15.870283	2 786 002 Kč	3 371 062 Kč	apdos-pardubice	https://apdos.roadmedia.cz/json/data-pardubice.json
2023	I/36 Časy–Holice	I/36	Dokončeno	2022	2023	50.071175	15.943894			apdos-pardubice	https://apdos.roadmedia.cz/json/data-pardubice.json
2025	I/36 Pardubice, Trnová–Fáblovka–Dubina	I/36	Dokončeno	2022	2025	50.051834	15.785108			apdos-pardubice	https://apdos.roadmedia.cz/json/data-pardubice.json
2021	I/37 Chrudim – obchvat, úsek křiž. I/17–Slatiňany	I/37	Dokončeno	2019	2021	49.92444	15.82694			apdos-pardubice	https://apdos.roadmedia.cz/json/data-pardubice.json
2021	I/37 Pardubice - MÚK Palackého, dostavba	I/37	Dokončeno	2019	2021	50.03512	15.748765			apdos-pardubice	https://apdos.roadmedia.cz/json/data-pardubice.json
2023	I/43 Hradec nad Svitavou – Lačnov	I/43	Dokončeno	2022	2023	49.729874	16.48656			apdos-pardubice	https://apdos.roadmedia.cz/json/data-pardubice.json
